[
  {
      "Job": "Location1",
      "Address": "Denver, CO",
      "Latitude": 39.7392,
      "Longitude": -104.9903
  },
  {
      "Job": "Location2",
      "Address": "MEMPHIS, TN",
      "Latitude": 35.1174,
      "Longitude": -89.9711
  },
  {
      "Job": "Location4",
      "Address": "ORLANDO, FL",
      "Latitude": 28.4158,
      "Longitude": -81.2989
  },
  {
      "Job": "Location5",
      "Address": "DALLAS, TX",
      "Latitude": 32.7767,
      "Longitude": -96.7970
  },
  {
      "Job": "Location6",
      "Address": "CHICAGO, TN",
      "Latitude": 41.8369,
      "Longitude": -87.6847
  }
]